City,Lat,Lng,Max Temp,Humidity,Cloudiness,Wind Speed,Country,Date
hermanus,-34.4187,19.2345,52.81,66,46,5.08,ZA,1627333204
msanga,-6.05,36.0333,60.71,55,62,5.73,TZ,1627333205
rutul,41.5357,47.4239,62.51,91,0,0.16,RU,1627333206
hithadhoo,-0.6,73.0833,80.2,80,95,7.7,MV,1627333207
kendari,-3.945,122.4989,70.12,93,32,2.91,ID,1627333208
portland,45.5234,-122.6762,91.09,47,71,3.0,US,1627332767
faanui,-16.4833,-151.75,78.58,76,58,12.57,PF,1627333209
itaituba,-4.2761,-55.9836,90.54,35,100,2.44,BR,1627333210
vaini,-21.2,-175.2,74.62,71,99,20.31,TO,1627333211
port elizabeth,-33.918,25.5701,65.1,29,40,12.66,ZA,1627333211
bluff,-46.6,168.3333,42.8,79,40,18.9,NZ,1627333070
cape town,-33.9258,18.4232,62.1,48,11,9.17,ZA,1627333212
fort nelson,58.8053,-122.7002,72.99,35,75,6.91,CA,1627333199
rikitea,-23.1203,-134.9692,74.08,76,99,18.23,PF,1627333212
xining,36.6167,101.7667,52.97,85,80,1.39,CN,1627333213
jega,12.2175,4.3792,80.91,71,100,8.97,NG,1627333214
bull savanna,17.8868,-77.5902,83.95,64,68,12.03,JM,1627333214
penzance,50.1186,-5.5371,63.61,83,100,12.06,GB,1627333215
qaanaaq,77.484,-69.3632,41.88,68,100,7.49,GL,1627333215
changji,44.0167,87.3167,83.19,23,0,8.95,CN,1627333216
dunda,-8.1167,34.25,55.29,57,8,3.11,TZ,1627333217
amos,48.5669,-78.1162,70.18,44,97,12.35,CA,1627333218
trebisacce,39.8708,16.5312,78.53,38,2,4.79,IT,1627333218
cochabamba,-17.3895,-66.1568,78.55,12,20,5.75,BO,1627332988
jinchang,38.4953,102.1739,75.38,29,100,6.11,CN,1627333090
santiago del estero,-27.7951,-64.2615,64.8,27,0,13.4,AR,1627333219
barrow,71.2906,-156.7887,42.17,98,100,4.41,US,1627333220
cessnock,-32.8333,151.35,53.82,94,3,4.54,AU,1627333220
pangnirtung,66.1451,-65.7125,48.2,93,75,5.75,CA,1627333221
ushuaia,-54.8,-68.3,35.26,87,40,6.91,AR,1627333044
sitka,57.0531,-135.33,62.4,65,71,5.57,US,1627333222
castro,-24.7911,-50.0119,60.53,63,2,4.5,BR,1627333222
narsaq,60.9167,-46.05,57.65,62,20,4.7,GL,1627333223
bethel,41.3712,-73.414,89.46,54,31,5.19,US,1627333224
kruisfontein,-34.0033,24.7314,62.89,25,90,13.8,ZA,1627333224
vostok,46.4856,135.8833,72.79,86,89,1.61,RU,1627333225
auki,-8.7676,160.7034,77.49,86,99,5.35,SB,1627333225
busselton,-33.65,115.3333,53.1,73,100,35.5,AU,1627333072
ibra,22.6906,58.5334,91.74,42,88,5.86,OM,1627333226
margate,51.3813,1.3862,68.04,83,11,3.0,GB,1627333226
upernavik,72.7868,-56.1549,46.83,67,100,4.12,GL,1627333070
mataura,-46.1927,168.8643,42.48,96,56,2.42,NZ,1627333067
toba,34.4833,136.85,82.4,78,71,5.99,JP,1627333227
guerrero negro,27.9769,-114.0611,80.02,52,0,13.53,MX,1627333227
torbay,47.6666,-52.7314,66.27,76,45,5.01,CA,1627333228
airai,-8.9266,125.4092,55.26,56,13,3.15,TL,1627333229
ongandjera,-17.8833,15.0667,60.82,31,0,8.88,NA,1627333229
tuatapere,-46.1333,167.6833,42.82,90,59,4.81,NZ,1627333229
atuona,-9.8,-139.0333,78.42,67,34,23.58,PF,1627333230
albany,42.6001,-73.9662,85.78,48,0,1.01,US,1627333193
arraial do cabo,-22.9661,-42.0278,71.49,78,0,27.87,BR,1627333231
puerto ayora,-0.7393,-90.3518,74.55,82,37,8.01,EC,1627333231
aklavik,68.2191,-135.0107,52.84,89,100,0.58,CA,1627333231
santa maria do para,-1.3503,-47.5756,78.15,84,79,6.73,BR,1627333232
gombong,-7.6072,109.5142,72.82,83,85,2.95,ID,1627333233
camabatela,-8.1881,15.375,64.4,37,100,2.3,AO,1627333233
tuktoyaktuk,69.4541,-133.0374,46.71,74,96,5.77,CA,1627333234
merauke,-8.4667,140.3333,76.12,84,98,12.66,ID,1627333234
sao filipe,14.8961,-24.4956,75.58,81,22,10.45,CV,1627333234
luderitz,-26.6481,15.1594,67.96,41,0,9.53,NA,1627333150
kavieng,-2.5744,150.7967,81.61,74,53,8.01,PG,1627333235
mar del plata,-38.0023,-57.5575,48.22,66,75,4.0,AR,1627333089
port lincoln,-34.7333,135.8667,54.52,49,47,21.81,AU,1627333235
cabo san lucas,22.8909,-109.9124,99.52,67,3,5.55,MX,1627333139
kismayo,-0.3582,42.5454,76.14,79,98,17.81,SO,1627333236
san patricio,28.017,-97.5169,96.03,39,5,12.39,US,1627333236
muli,2.9167,73.5667,81.97,69,100,2.39,MV,1627333236
nzerekore,7.7562,-8.8179,69.39,99,30,3.22,GN,1627333237
adre,13.4667,22.2,73.74,77,100,4.16,TD,1627333237
camacha,33.0833,-16.3333,71.02,73,75,11.5,PT,1627333135
belyy yar,53.6039,91.3903,64.29,94,0,4.47,RU,1627333238
krasnoarmeysk,51.0239,45.6969,68.29,56,0,3.06,RU,1627333238
pierre,44.3683,-100.351,107.28,13,5,16.37,US,1627333218
ubala,4.7478,-72.5369,82.85,73,55,1.63,CO,1627333239
yumen,40.2833,97.2,73.83,24,8,9.75,CN,1627333239
yanam,16.7333,82.2167,81.39,78,68,6.24,IN,1627333240
vila velha,-20.3297,-40.2925,77.97,66,2,9.98,BR,1627333240
andenes,69.3143,16.1194,57.47,93,90,10.36,NO,1627333241
tasiilaq,65.6145,-37.6368,39.7,85,46,1.68,GL,1627333131
mahebourg,-20.4081,57.7,66.25,77,79,13.98,MU,1627333241
ambilobe,-13.2,49.05,71.06,63,94,4.12,MG,1627333242
kayes,14.0,-11.0,86.2,60,73,7.34,ML,1627333242
hofn,64.2539,-15.2082,52.32,78,100,7.54,IS,1627333242
hilo,19.7297,-155.09,76.24,95,55,3.0,US,1627333243
baykit,61.67,96.37,65.17,74,51,3.29,RU,1627333243
itacare,-14.2775,-38.9967,71.89,82,2,4.5,BR,1627333244
ponta do sol,32.6667,-17.1,74.71,82,2,5.32,PT,1627333244
marawi,7.9986,124.2928,70.65,90,100,5.46,PH,1627333245
olafsvik,64.8945,-23.7142,49.41,88,100,12.97,IS,1627333245
chuy,-33.6971,-53.4616,50.74,77,87,12.15,UY,1627333245
punta arenas,-53.15,-70.9167,42.12,75,100,12.1,CL,1627333246
ostersund,63.1792,14.6357,73.85,43,0,9.22,SE,1627333246
port-gentil,-0.7193,8.7815,75.11,83,93,15.39,GA,1627333220
port shepstone,-30.7414,30.455,59.45,75,91,10.78,ZA,1627333247
guarapari,-20.6667,-40.4975,77.92,80,0,13.15,BR,1627333247
hobart,-42.8794,147.3294,51.66,88,75,8.05,AU,1627333163
grenaa,56.4158,10.8783,66.42,96,84,10.65,DK,1627333247
dalby,-27.1833,151.2667,30.9,68,0,2.46,AU,1627333147
constitucion,-35.3333,-72.4167,52.7,61,0,11.36,CL,1627333248
wewak,-3.5534,143.6268,79.2,86,66,7.27,PG,1627333248
saldanha,-33.0117,17.9442,53.65,82,44,8.66,ZA,1627333154
beringovskiy,63.05,179.3167,51.93,94,100,4.25,RU,1627333249
stornoway,58.2093,-6.3865,63.93,94,90,4.61,GB,1627333249
nguruka,-5.1092,31.0419,61.66,43,20,4.0,TZ,1627333249
uhlove,44.8215,33.6045,77.58,64,0,9.57,UA,1627333250
butaritari,3.0707,172.7902,82.8,73,98,7.34,KI,1627333250
lorengau,-2.0226,147.2712,81.91,77,74,3.58,PG,1627333216
ullapool,57.8987,-5.1604,65.75,98,95,3.8,GB,1627333250
carnarvon,-24.8667,113.6333,69.06,81,3,22.26,AU,1627333251
jamestown,42.097,-79.2353,84.09,68,5,8.41,US,1627333009
boa vista,2.8197,-60.6733,87.78,55,75,4.61,BR,1627333251
thompson,55.7435,-97.8558,75.97,20,2,5.82,CA,1627333209
soe,-9.8607,124.284,60.22,92,66,4.59,ID,1627333252
obihiro,42.9172,143.2044,67.1,87,100,3.31,JP,1627333252
khatanga,71.9667,102.5,57.51,69,32,15.73,RU,1627333252
kahului,20.8947,-156.47,82.85,81,58,13.0,US,1627333253
kapaa,22.0752,-159.319,82.38,78,91,5.01,US,1627333253
bandarbeyla,9.4942,50.8122,76.78,79,4,27.0,SO,1627333254
bengkulu,-3.8004,102.2655,73.67,76,2,4.29,ID,1627333254
east london,-33.0153,27.9116,66.65,25,100,10.76,ZA,1627333255
mercedes,-34.6515,-59.4307,56.84,51,71,8.37,AR,1627333256
komsomolskiy,40.4272,71.7189,83.62,18,4,3.42,UZ,1627333256
saint-pierre,-21.3393,55.4781,67.64,83,90,5.75,RE,1627333256
kaitangata,-46.2817,169.8464,45.93,70,98,7.07,NZ,1627333256
katsuura,35.1333,140.3,75.18,86,100,23.38,JP,1627333257
beausejour,50.0622,-96.5167,84.47,27,98,11.95,CA,1627333257
santa cruz del norte,23.1539,-81.9236,80.73,82,75,8.95,CU,1627333258
vrangel,42.7297,133.0839,73.99,92,58,3.65,RU,1627333258
esperance,-33.8667,121.9,57.63,71,55,29.21,AU,1627333258
bonavista,48.6499,-53.1147,63.12,76,26,12.06,CA,1627333259
tezu,27.9167,96.1667,77.09,97,100,3.0,IN,1627333259
cockburn town,21.4612,-71.1419,82.98,78,12,13.98,TC,1627333259
balkhash,46.844,74.9804,71.69,43,0,21.99,KZ,1627333260
touros,-5.1989,-35.4608,77.25,76,2,13.35,BR,1627333239
longyearbyen,78.2186,15.6401,44.8,79,100,2.48,SJ,1627333108
mitsamiouli,-11.3847,43.2844,75.58,69,0,12.35,KM,1627333260
lokoja,7.8024,6.743,74.1,90,100,3.56,NG,1627333261
port hedland,-20.3167,118.5667,60.85,100,61,6.91,AU,1627333261
fuji,35.1667,138.6833,78.37,89,100,2.15,JP,1627333262
sao joao da barra,-21.6403,-41.0511,71.49,82,0,17.27,BR,1627333262
port augusta,-32.5,137.7667,55.71,45,25,19.95,AU,1627333263
sisimiut,66.9395,-53.6735,59.97,59,69,10.11,GL,1627333263
saint-philippe,-21.3585,55.7679,67.55,80,83,10.74,RE,1627333263
bredasdorp,-34.5322,20.0403,52.29,51,100,5.21,ZA,1627333264
belmonte,-15.8631,-38.8828,71.29,84,6,6.6,BR,1627333264
jumla,29.2747,82.1838,65.01,99,100,1.68,NP,1627333174
batamshinskiy,50.5594,58.2747,60.1,44,1,10.13,KZ,1627333265
san policarpo,12.1791,125.5072,80.38,82,100,8.9,PH,1627333265
nanortalik,60.1432,-45.2371,50.2,74,21,9.24,GL,1627333265
waipawa,-41.4122,175.5153,53.02,73,67,12.33,NZ,1627333266
diamantina,-18.2494,-43.6003,60.84,48,8,5.14,BR,1627333266
great bend,38.3645,-98.7648,93.25,53,1,1.99,US,1627333266
la asuncion,11.0333,-63.8628,89.33,62,13,16.11,VE,1627333267
new norfolk,-42.7826,147.0587,51.3,85,100,1.01,AU,1627333074
novikovo,51.1537,37.8879,66.4,52,22,3.51,RU,1627333267
norman wells,65.282,-126.8329,62.01,56,100,7.38,CA,1627333267
umm kaddadah,13.6017,26.6876,76.62,76,81,19.48,SD,1627333268
bambous virieux,-20.3428,57.7575,66.22,77,81,13.47,MU,1627333268
kodiak,57.79,-152.4072,56.39,75,21,6.78,US,1627333268
formosa,-26.1775,-58.1781,68.97,80,100,13.82,AR,1627333269
nikolskoye,59.7035,30.7861,67.89,67,14,1.9,RU,1627333269
khandbari,27.3747,87.2039,73.81,96,100,0.45,NP,1627333270
eydhafushi,5.1033,73.0708,82.02,75,100,8.39,MV,1627333270
kula,38.5473,28.6498,72.61,48,0,3.4,TR,1627333270
husavik,66.0449,-17.3389,57.11,69,94,5.35,IS,1627333150
beira,-19.8436,34.8389,68.09,73,20,4.61,MZ,1627333270
severo-kurilsk,50.6789,156.125,59.09,92,100,7.87,RU,1627333263
filingue,14.3521,3.3168,93.94,43,99,9.35,NE,1627333271
ambon,-3.6954,128.1814,73.54,88,20,2.3,ID,1627333271
pavlohrad,48.5167,35.8667,68.97,53,48,6.85,UA,1627333272
ndioum,16.5129,-14.6471,85.64,45,11,22.77,SN,1627333272
ilulissat,69.2167,-51.1,44.83,95,100,8.03,GL,1627333140
burnie,-41.0667,145.9167,53.92,87,100,12.95,AU,1627333272
lantawan,10.6167,123.9833,77.47,82,100,9.4,PH,1627333273
venado tuerto,-33.7456,-61.9688,52.79,41,38,12.93,AR,1627333273
zhanakorgan,43.9098,67.2495,81.3,25,0,24.14,KZ,1627333273
santa maria,-29.6842,-53.8069,63.7,100,75,6.91,BR,1627333004
karpinsk,59.7654,60.0085,52.07,82,44,6.04,RU,1627333274
dikson,73.5069,80.5464,37.81,100,100,6.96,RU,1627333267
north myrtle beach,33.816,-78.68,90.34,81,39,1.99,US,1627333274
valparaiso,-33.0393,-71.6273,64.04,80,0,6.91,CL,1627333275
marsh harbour,26.5412,-77.0636,83.98,71,8,11.14,BS,1627333276
esmeralda,21.8525,-78.1169,72.64,71,70,4.09,CU,1627333276
moose factory,51.2585,-80.6094,60.58,60,68,8.16,CA,1627333257
winneba,5.3511,-0.6231,74.97,82,44,11.77,GH,1627333277
tias,28.9611,-13.645,71.35,83,75,21.85,ES,1627333277
hervey bay,-25.2986,152.8535,53.04,75,0,7.81,AU,1627333277
salalah,17.0151,54.0924,77.72,85,100,11.23,OM,1627333225
bongandanga,1.5,21.05,76.91,66,100,2.04,CD,1627333278
shingu,33.7333,135.9833,79.92,82,91,6.62,JP,1627333278
khash,28.2211,61.2158,84.22,15,70,5.93,IR,1627333278
havelock,34.8791,-76.9013,88.05,80,62,8.99,US,1627332979
avarua,-21.2078,-159.775,78.85,73,20,6.91,CK,1627333073
litovko,49.2361,135.1742,77.4,71,100,1.97,RU,1627333279
libertador general san martin,-23.8064,-64.7876,68.97,38,0,5.91,AR,1627333279
mareeba,-17.0,145.4333,66.92,91,67,2.35,AU,1627333279
dunedin,-45.8742,170.5036,48.79,61,94,11.01,NZ,1627333176
saint-francois,46.4154,3.9054,64.67,79,0,2.3,FR,1627333280
chokurdakh,70.6333,147.9167,42.31,73,95,11.99,RU,1627333280
nome,64.5011,-165.4064,50.07,93,90,9.22,US,1627333280
georgetown,5.4112,100.3354,83.89,89,20,0.0,MY,1627333072
urubicha,-15.3833,-62.95,94.01,26,3,5.55,BO,1627333281
codrington,-38.2667,141.9667,47.12,72,21,15.59,AU,1627333142
porosozero,62.7191,32.727,58.96,95,79,3.76,RU,1627333281
oxford,51.7522,-1.256,69.4,70,0,8.05,GB,1627333018
vestmannaeyjar,63.4427,-20.2734,49.19,93,90,13.8,IS,1627333282
caravelas,-17.7125,-39.2481,70.95,80,5,5.75,BR,1627333282
nevelsk,46.6733,141.8633,63.03,72,86,4.29,RU,1627333282
lavrentiya,65.5833,-171.0,45.07,98,100,3.47,RU,1627333274
la ronge,55.1001,-105.2842,70.95,40,6,2.98,CA,1627333283
jiaojiang,28.6803,121.4428,79.0,94,100,7.2,CN,1627333283
te anau,-45.4167,167.7167,39.2,91,49,1.3,NZ,1627333240
padilla,3.2204,-76.3139,83.77,68,56,2.89,CO,1627333283
treinta y tres,-33.2333,-54.3833,52.66,79,9,9.17,UY,1627333284
port macquarie,-31.4333,152.9167,43.38,79,2,5.82,AU,1627333284
santa cruz de tenerife,28.4682,-16.2546,78.71,93,75,5.99,ES,1627333284
kyren,51.6828,102.1408,59.23,85,16,2.33,RU,1627333285
klaksvik,62.2266,-6.589,52.72,99,100,7.2,FO,1627333285
cidreira,-30.1811,-50.2056,61.29,97,100,3.22,BR,1627333285
ribeira grande,38.5167,-28.7,70.99,87,5,11.68,PT,1627333285
kirakira,-10.4544,161.9205,78.66,84,93,5.99,SB,1627333286
ahipara,-35.1667,173.1667,55.76,77,20,17.31,NZ,1627333286
nioki,-2.7167,17.6833,75.74,35,70,2.21,CD,1627333286
kaeo,-35.1,173.7833,53.33,90,47,12.97,NZ,1627333287
lagoa,39.05,-27.9833,70.83,87,72,9.84,PT,1627333287
aden,12.7794,45.0367,82.44,80,100,8.01,YE,1627333109
ardabil,38.2498,48.2933,72.77,58,100,2.95,IR,1627333287
dindori,22.95,81.0833,73.18,94,100,12.68,IN,1627333288
manbij,36.5281,37.9549,79.57,33,0,13.13,SY,1627333288
angoram,-4.0625,144.0661,73.53,97,58,1.86,PG,1627333288
yamada,39.4667,141.95,70.3,98,100,15.84,JP,1627333289
deputatskiy,69.3,139.9,43.16,86,100,3.96,RU,1627333289
yellowknife,62.456,-114.3525,69.3,47,72,14.47,CA,1627333289
mount pleasant,32.7941,-79.8626,90.0,81,75,1.01,US,1627333290
sangar,63.9242,127.4739,64.56,71,11,11.97,RU,1627333290
ketchikan,55.3422,-131.6461,55.63,97,100,3.74,US,1627333290
can tho,10.0333,105.7833,76.98,100,75,4.61,VN,1627333291
hambantota,6.1241,81.1185,80.22,82,98,19.44,LK,1627333291
novoseleznevo,55.6821,69.2056,57.18,60,100,6.87,RU,1627333291
norton,-17.8833,30.7,42.96,88,8,6.98,ZW,1627333292
hailar,49.2,119.7,59.67,98,85,3.91,CN,1627333292
amahai,-3.3333,128.9167,76.48,89,83,1.72,ID,1627333292
port alfred,-33.5906,26.891,63.3,33,100,10.11,ZA,1627333293
lebu,-37.6167,-73.65,48.79,66,7,16.78,CL,1627333150
maragogi,-9.0122,-35.2225,74.21,88,57,9.48,BR,1627333293
dudinka,69.4058,86.1778,55.96,86,84,10.74,RU,1627333294
guantanamo,20.1444,-75.2092,88.16,62,91,4.9,CU,1627333294
bougouni,11.417,-7.479,78.08,78,97,5.48,ML,1627333295
tura,25.5198,90.2201,76.08,94,100,3.47,IN,1627333295
atbasar,51.8,68.3333,55.4,57,3,7.92,KZ,1627333295
usogorsk,63.4106,48.6872,46.6,77,39,9.69,RU,1627333296
san quintin,30.4833,-115.95,72.95,69,27,11.54,MX,1627333296
yar-sale,66.8333,70.8333,46.6,83,16,4.54,RU,1627333297
tautira,-17.7333,-149.15,82.42,74,31,8.08,PF,1627333277
paramonga,-10.6667,-77.8333,67.06,77,40,11.7,PE,1627333297
pacific grove,36.6177,-121.9166,83.61,77,77,5.01,US,1627333297
tiksi,71.6872,128.8694,38.3,89,88,10.63,RU,1627333298
bonfim,3.0833,-59.95,83.21,73,65,4.68,BR,1627333298
omsukchan,62.5333,155.8,48.83,93,100,5.64,RU,1627333299
nalut,30.3333,10.85,86.99,16,0,12.17,LY,1627333295
geraldton,-28.7667,114.6,65.12,72,90,21.85,AU,1627333299
black river,18.0264,-77.8487,85.98,65,86,7.02,JM,1627333299
shitanjing,39.2342,106.3439,69.42,45,25,4.36,CN,1627333300
cherskiy,68.75,161.3,48.38,58,5,11.61,RU,1627333300
galveston,29.3669,-94.9669,101.19,61,17,3.0,US,1627333174
asau,46.4333,26.4,67.28,86,87,4.63,RO,1627333301
sierpc,52.8568,19.6691,67.48,90,46,4.47,PL,1627333301
iberia,29.9502,-91.7507,95.09,55,14,2.8,US,1627333249
vila do maio,15.1333,-23.2167,77.79,81,31,11.43,CV,1627333302
ust-kuyga,70.0167,135.6,51.67,85,100,9.57,RU,1627333302
halifax,44.6453,-63.5724,78.42,79,40,5.01,CA,1627333236
henties bay,-22.116,14.2845,63.91,63,0,6.82,NA,1627333303
olga,43.7444,135.2892,70.47,97,100,2.19,RU,1627333303
bauchi,10.5,10.0,69.91,96,100,3.0,NG,1627333303
turayf,31.6725,38.6637,86.16,33,0,15.5,SA,1627333304
nizwa,22.9333,57.5333,96.85,33,69,4.68,OM,1627333093
manta,-0.95,-80.7333,75.79,77,82,12.12,EC,1627333211
praia,14.9215,-23.5087,77.54,78,20,9.22,CV,1627333304
laguna de perlas,12.3429,-83.6712,83.25,71,95,10.56,NI,1627333305
petropavlovsk-kamchatskiy,53.0452,158.6483,72.19,73,40,11.18,RU,1627333303
griffith,41.5284,-87.4237,95.05,29,1,4.0,US,1627333305
kuching,1.55,110.3333,75.42,94,20,1.14,MY,1627333305
the valley,18.217,-63.0578,84.81,73,100,15.88,AI,1627333306
yulara,-25.2406,130.9889,56.35,32,24,9.95,AU,1627333306
port blair,11.6667,92.75,81.66,86,100,20.45,IN,1627333306
pyaozerskiy,65.8333,31.1667,52.11,66,96,4.88,RU,1627333307
vuktyl,63.8567,57.3094,44.44,97,94,7.31,RU,1627333307
assiniboia,49.6334,-105.9845,87.71,24,0,6.91,CA,1627333123
sarakhs,36.5449,61.1577,93.25,23,0,17.96,IR,1627333307
bonthe,7.5264,-12.505,76.82,86,80,9.33,SL,1627333308
ouro preto do oeste,-10.7481,-62.2158,94.86,27,3,2.48,BR,1627333308
alofi,-19.0595,-169.9187,76.26,76,55,3.29,NU,1627333308
russell,32.3502,-85.1999,93.51,64,86,3.2,US,1627333309
nerchinskiy zavod,51.3088,119.61,54.37,96,63,5.08,RU,1627333309
naryan-mar,67.6713,53.087,43.0,93,100,9.46,RU,1627333309
gazimurskiy zavod,51.5461,118.3266,53.01,98,19,3.42,RU,1627333310
bud,39.447,-86.1758,90.91,51,0,6.38,US,1627333310
leh,34.1667,77.5833,73.06,33,92,6.78,IN,1627333310
oktyabrskiy,54.4815,53.471,60.06,53,70,4.38,RU,1627333311
arcos,-20.2819,-45.5394,66.25,38,0,3.8,BR,1627333311
saskylakh,71.9167,114.0833,49.62,77,43,4.03,RU,1627333257
sakakah,29.9697,40.2064,97.38,21,8,9.04,SA,1627333311
broome,42.2506,-75.833,85.17,48,0,3.0,US,1627333312
rock sound,24.9,-76.2,83.39,72,7,7.11,BS,1627333027
carlsbad,33.1581,-117.3506,90.72,82,90,3.0,US,1627333256
kukushtan,57.6464,56.4952,55.02,79,7,8.41,RU,1627333312
mitu,1.1983,-70.1733,77.86,90,81,1.83,CO,1627333299
provideniya,64.3833,-173.3,48.31,93,90,6.71,RU,1627333313
mountain home,43.133,-115.6912,100.11,7,85,5.35,US,1627333313
la garriga,41.6833,2.2833,77.7,72,95,2.17,ES,1627333314
muromtsevo,56.3724,75.2418,47.89,91,0,5.61,RU,1627333314
hasaki,35.7333,140.8333,72.28,94,100,29.37,JP,1627333235
helong,42.5397,128.9972,69.17,92,78,1.79,CN,1627333315
sitionuevo,10.7774,-74.7205,85.44,72,94,8.95,CO,1627333215
hamilton,39.1834,-84.5333,91.65,46,0,3.0,US,1627333291
vardo,70.3705,31.1107,44.58,93,75,12.66,NO,1627333315
fukue,32.6881,128.8419,78.53,79,0,3.76,JP,1627333315
los chiles,11.0333,-84.7167,80.22,89,100,3.0,CR,1627333316
san luis,-33.295,-66.3356,52.57,44,21,12.44,AR,1627333316
san severo,41.6897,15.376,83.98,23,15,7.18,IT,1627333316
palma,39.5694,2.6502,77.05,51,0,3.0,ES,1627333317
kincardine,56.0667,-3.7167,65.84,81,99,5.95,GB,1627333200
okhotsk,59.3833,143.3,63.61,79,0,7.81,RU,1627333317
iracoubo,5.4802,-53.2011,81.3,77,39,7.85,GF,1627333273
nola,40.922,14.5329,86.92,62,55,2.19,IT,1627333318
ponerihouen,-21.0833,165.4,66.31,67,100,4.56,NC,1627333318
blagoyevo,63.3667,47.9167,45.57,77,28,8.34,RU,1627333318
wanaka,-44.7,169.15,39.11,99,91,1.01,NZ,1627333179
acarau,-2.8856,-40.12,80.04,76,45,20.22,BR,1627333319
ada,43.4166,-116.1262,99.99,13,85,5.01,US,1627333319
cheremukhovo,60.3484,59.9851,52.68,81,36,6.42,RU,1627333319
egvekinot,66.3167,-179.1667,44.13,94,100,1.36,RU,1627333320
vera cruz,-12.6333,-41.0333,70.65,61,99,2.82,BR,1627333320
bilma,18.6853,12.9164,94.96,34,98,8.37,NE,1627333122
isangel,-19.55,169.2667,72.9,70,98,14.45,VU,1627333320
viransehir,37.2353,39.7631,90.77,18,0,13.44,TR,1627333321
mizdah,31.4451,12.9801,75.96,46,0,18.32,LY,1627333322
santa cruz,-17.8,-63.1667,89.35,31,0,14.85,BO,1627333322
wanning,18.8003,110.3967,80.35,89,76,7.31,CN,1627333322
flinders,-34.5833,150.8552,55.18,72,83,4.0,AU,1627333323
kantang,7.4054,99.5156,79.5,86,79,7.29,TH,1627333323
salta,-24.7859,-65.4117,55.58,60,0,10.0,AR,1627333323
hobyo,5.3505,48.5268,76.59,77,45,23.69,SO,1627333143
seoul,37.5683,126.9778,80.04,64,2,2.06,KR,1627333310
manaus,-3.1019,-60.025,90.1,66,75,1.14,BR,1627333056
mogilno,52.6581,17.9558,71.31,82,20,4.16,PL,1627333324
pisco,-13.7,-76.2167,70.02,77,1,3.78,PE,1627333324
kanniyakumari,8.0833,77.5667,79.0,85,100,18.28,IN,1627333325
aktau,43.65,51.2,82.98,34,33,23.98,KZ,1627333325
hami,42.8,93.45,83.88,21,5,9.66,CN,1627333203
karasjok,69.4719,25.5112,46.51,82,22,3.02,NO,1627333325
salisbury,51.0693,-1.7957,67.68,84,0,6.91,GB,1627333326
biedenkopf,50.9167,8.5333,62.67,97,68,4.59,DE,1627333326
sulangan,11.1373,123.7228,83.79,75,100,16.02,PH,1627333326
san cristobal,7.7669,-72.225,72.46,83,89,5.26,VE,1627333280
skibbereen,51.55,-9.2667,60.6,90,100,10.94,IE,1627333327
kathu,7.9178,98.3332,86.7,77,99,15.12,TH,1627333327
yurimaguas,-5.9,-76.0833,83.61,68,74,2.46,PE,1627333327
sao miguel do araguaia,-13.275,-50.1628,83.52,29,6,5.39,BR,1627333233
maldonado,-34.6667,-54.9167,51.22,86,2,8.9,UY,1627333287
yaring,6.8662,101.3689,78.24,87,83,9.06,TH,1627333328
coihaique,-45.5752,-72.0662,37.47,78,70,7.36,CL,1627333328
anadyr,64.75,177.4833,50.5,93,75,17.0,RU,1627333329
tchollire,8.4022,14.1698,71.51,95,100,3.24,CM,1627333329
avera,33.194,-82.5271,96.39,41,11,2.35,US,1627333329
prado,-17.3411,-39.2208,70.7,83,8,6.31,BR,1627333329
krasnoselkup,65.7,82.4667,54.52,96,100,15.99,RU,1627333221
ixtapa,20.7,-105.2,88.23,70,99,5.99,MX,1627333324
taltal,-25.4,-70.4833,60.75,71,15,4.52,CL,1627333330
livingston,55.9029,-3.5226,64.13,77,0,6.91,GB,1627333330
walvis bay,-22.9575,14.5053,69.3,42,0,8.01,NA,1627333330
canto do buriti,-8.11,-42.9444,81.9,35,43,4.23,BR,1627333331
mozarlandia,-14.7447,-50.5706,84.49,28,5,4.29,BR,1627333331
chegdomyn,51.1167,133.0167,67.6,98,100,2.3,RU,1627333331
bowen,-20.0167,148.2333,57.96,84,37,8.66,AU,1627333332
olinda,-8.0089,-34.8553,74.93,78,0,9.22,BR,1627333332
marsa matruh,31.3525,27.2453,78.15,78,16,11.95,EG,1627333214
naze,28.3667,129.4833,76.8,86,100,13.13,JP,1627333285
san javier,37.8063,-0.8374,77.22,73,20,4.0,ES,1627333333
artesia,33.8658,-118.0831,92.57,71,40,5.01,US,1627333333
kloulklubed,7.0419,134.2556,83.66,79,100,17.29,PW,1627333333
gambo,4.6482,22.2633,68.95,99,100,2.48,CF,1627333334
urumqi,43.801,87.6005,79.75,23,0,8.95,CN,1627333065
andros,37.8333,24.9333,79.74,52,0,11.01,GR,1627333334
coquimbo,-29.9533,-71.3436,62.33,63,20,12.66,CL,1627333085
stephenville,32.2207,-98.2023,99.77,34,1,4.61,US,1627333334
wagar,16.1525,36.2032,77.95,77,100,16.49,SD,1627333335
najran,17.4924,44.1277,86.59,31,74,3.13,SA,1627333335
saint george,37.1041,-113.5841,93.79,43,40,1.99,US,1627333335
iqaluit,63.7506,-68.5145,50.7,81,70,8.01,CA,1627333214
pimentel,-6.8367,-79.9342,71.01,78,33,5.01,PE,1627333336
port hardy,50.6996,-127.4199,57.38,94,90,8.05,CA,1627333336
petrozavodsk,61.7849,34.3469,58.46,94,0,0.0,RU,1627333337
qaqortoq,60.7167,-46.0333,52.09,75,14,4.5,GL,1627333337
rafai,4.95,23.9167,69.46,97,100,0.4,CF,1627333337
keuruu,62.2667,24.7,68.81,46,100,1.23,FI,1627333337
lively,46.4334,-81.1498,79.38,44,56,8.48,CA,1627333338
inhambane,-23.865,35.3833,65.39,69,59,9.48,MZ,1627333338
sikeston,36.8767,-89.5879,91.78,58,40,9.22,US,1627333338
padang,-0.9492,100.3543,77.31,89,29,3.33,ID,1627333167
dovolnoye,54.4958,79.6671,52.83,87,26,2.04,RU,1627333339
nuuk,64.1835,-51.7216,59.61,63,20,10.36,GL,1627333258
palana,59.1167,159.9667,47.66,98,100,22.1,RU,1627333339
colares,38.7992,-9.4469,69.48,73,20,11.99,PT,1627333093
filadelfia,39.9523,-75.1638,93.49,44,70,4.0,US,1627333200
yingkou,40.6648,122.2283,75.02,79,51,3.53,CN,1627333340
aukra,62.7925,6.919,68.76,88,75,5.75,NO,1627333340
rio gallegos,-51.6226,-69.2181,39.56,91,100,14.88,AR,1627333340
arlit,18.7369,7.3853,100.2,7,100,11.1,NE,1627333340
mwinilunga,-11.7358,24.4293,52.84,46,100,5.44,ZM,1627333228
bitung,1.4451,125.1824,76.05,82,100,14.34,ID,1627333341
poso,-1.3959,120.7524,75.76,76,47,5.37,ID,1627333341
fuerte olimpo,-21.0415,-57.8738,94.14,19,2,7.65,PY,1627333341
itupiranga,-5.1347,-49.3267,85.06,44,47,1.66,BR,1627333342
toppenish,46.3774,-120.3087,97.02,22,100,5.12,US,1627333342
nuristan,35.3,70.8333,54.68,54,64,7.45,AF,1627333342
ostrovnoy,68.0531,39.5131,45.86,88,100,21.74,RU,1627333123
emerald,-23.5333,148.1667,45.99,53,0,5.77,AU,1627333343
vanimo,-2.6741,141.3028,75.83,85,53,4.74,PG,1627333343
birao,10.2849,22.7882,71.22,96,100,4.16,CF,1627333343
luau,-10.7073,22.2247,61.32,30,100,7.14,AO,1627333344
talnakh,69.4865,88.3972,64.99,83,70,6.13,RU,1627333344
ayagoz,47.9714,80.4392,65.46,71,31,19.62,KZ,1627333345
mayo,38.8876,-76.5119,94.64,66,99,1.99,US,1627333345
kijang,35.2442,129.2139,75.85,89,3,7.05,KR,1627333345
mogadishu,2.0371,45.3438,76.1,82,70,22.06,SO,1627333346
nishihara,26.1842,127.7558,79.88,97,90,11.5,JP,1627333346
fortuna,40.5982,-124.1573,98.47,79,1,17.27,US,1627333334
laguna,38.421,-121.4238,98.2,25,1,14.97,US,1627333346
menomonie,44.8755,-91.9193,90.0,42,98,13.8,US,1627333347
manzanillo,20.3433,-77.1167,85.14,70,90,8.99,CU,1627333258
warrnambool,-38.3833,142.4833,51.82,70,57,16.42,AU,1627333347
frontera,26.9333,-101.45,98.37,19,53,9.98,MX,1627333347
richards bay,-28.783,32.0377,62.19,58,20,13.8,ZA,1627333348
hushitai,41.9322,123.5114,73.31,91,10,5.21,CN,1627333348
bac lieu,9.285,105.7244,79.07,83,22,10.0,VN,1627333348
miahuatlan,18.5667,-97.4333,76.23,34,33,8.9,MX,1627333349
saint anthony,45.0205,-93.218,92.91,42,1,11.5,US,1627333349
kupiskis,55.8333,24.9667,66.67,74,92,7.76,LT,1627333151
noumea,-22.2763,166.4572,70.0,99,100,9.53,NC,1627333204
gamba,-2.65,10.0,71.02,90,73,7.07,GA,1627333349
mesa,33.4223,-111.8226,98.82,38,1,1.01,US,1627332812
darhan,49.4867,105.9228,58.48,78,16,1.97,MN,1627333350
victoria,22.2855,114.1577,87.33,85,94,5.99,HK,1627333350
terney,45.0503,136.6092,71.13,94,97,0.78,RU,1627333351
rawson,-43.3002,-65.1023,43.75,54,97,31.18,AR,1627333095
carutapera,-1.195,-46.02,76.32,91,80,6.73,BR,1627333351
boende,-0.2167,20.8667,77.88,39,93,1.92,CD,1627333351
petatlan,17.5167,-101.2667,90.0,61,41,5.7,MX,1627333352
lagos,6.5833,3.75,79.12,78,86,8.34,NG,1627333174
dingle,10.9995,122.6711,78.94,85,100,12.03,PH,1627333352
kozulka,50.0351,23.797,70.09,83,57,8.57,UA,1627333352
anchorage,61.2181,-149.9003,65.86,70,19,5.01,US,1627333147
ambulu,-8.345,113.6058,70.03,91,6,3.29,ID,1627333353
kot diji,27.3427,68.7083,88.41,63,66,18.21,PK,1627333353
kavaratti,10.5669,72.642,81.95,77,100,17.85,IN,1627333353
abaza,52.655,90.0928,60.69,96,87,4.45,RU,1627333354
haines junction,60.7522,-137.5108,50.79,91,100,2.37,CA,1627333354
nador,35.174,-2.9287,71.85,78,0,3.44,MA,1627333354
cap malheureux,-19.9842,57.6142,66.47,86,31,5.01,MU,1627333355
souillac,-20.5167,57.5167,66.58,100,40,3.44,MU,1627333112
saurimo,-9.6608,20.3916,58.35,31,83,5.48,AO,1627333355
faya,18.3851,42.4509,70.02,58,70,4.27,SA,1627333356
korsakov,46.6328,142.7813,64.24,84,47,5.93,RU,1627333356
gallup,35.5281,-108.7426,83.01,36,63,3.0,US,1627333164
santarem,-2.4431,-54.7083,88.32,44,100,1.48,BR,1627333311
ust-maya,60.4167,134.5333,64.35,77,5,4.74,RU,1627333356
bairiki,1.3292,172.9752,82.11,73,58,10.67,KI,1627333357
canillo,42.5833,1.6667,53.49,94,74,1.25,AD,1627333357
caxito,-8.5785,13.6643,72.25,94,52,0.76,AO,1627333357
leua,48.2156,18.6071,72.25,66,48,3.98,SK,1627333358
agadez,19.75,10.25,90.63,32,20,9.01,NE,1627333358
garca,-22.2106,-49.6561,76.08,33,0,2.1,BR,1627333307
nyurba,63.2842,118.3319,66.52,74,2,4.38,RU,1627333358
mecca,21.4267,39.8261,90.23,33,81,7.83,SA,1627333359
tilichiki,60.4667,166.1,52.79,98,100,4.79,RU,1627333232
cayenne,4.9333,-52.3333,86.04,78,20,3.0,GF,1627333205
namatanai,-3.6667,152.4333,79.07,78,53,2.55,PG,1627333359
chilca,-12.5211,-76.7372,64.85,82,32,8.03,PE,1627333360
champerico,14.3,-91.9167,90.03,68,79,7.14,GT,1627333360
kungurtug,50.5994,97.5228,56.21,94,100,1.25,RU,1627333361
springbok,-29.6643,17.8865,58.91,34,0,8.12,ZA,1627333361
atar,20.5169,-13.0499,99.09,15,31,7.02,MR,1627333166
stokmarknes,68.5646,14.9108,57.51,95,50,5.12,NO,1627333361
hovd,48.0056,91.6419,64.08,60,18,1.59,MN,1627333067
ancud,-41.8697,-73.8203,47.57,67,69,7.92,CL,1627333362
pravia,43.4906,-6.1508,64.69,77,75,2.3,ES,1627333362
chernyshevskiy,63.0128,112.4714,64.58,66,9,0.87,RU,1627333362
coahuayana,18.7333,-103.6833,89.53,65,44,7.14,MX,1627333363
urucara,-2.5364,-57.76,86.9,49,100,2.59,BR,1627333363
matara,5.9485,80.5353,79.07,88,91,11.54,LK,1627333363
marzuq,14.4,46.4667,75.58,70,100,6.71,YE,1627333364
alindao,5.0267,21.2088,68.02,97,100,2.91,CF,1627333364
buchanan,5.8808,-10.0467,76.5,82,100,10.83,LR,1627333364
hirara,24.8,125.2833,82.24,91,100,3.02,JP,1627333365
bathsheba,13.2167,-59.5167,81.95,73,28,13.76,BB,1627333365
raudeberg,61.9875,5.1352,78.4,74,86,10.02,NO,1627333365
porirua,-41.1333,174.85,55.42,61,63,11.99,NZ,1627333366
abnub,27.2696,31.1511,86.13,23,0,8.46,EG,1627333366
klaebu,63.2976,10.4826,69.28,42,72,8.01,NO,1627333366
chicama,-7.8447,-79.1469,66.74,66,19,10.51,PE,1627333367
mirnyy,62.5353,113.9611,66.22,59,5,2.42,RU,1627333367
soria,41.6667,-2.6667,68.02,55,65,6.22,ES,1627333367
abeche,13.8292,20.8324,72.55,88,100,4.99,TD,1627333368
ziro,27.6333,93.8333,60.82,99,100,0.89,IN,1627333368
morondava,-20.2833,44.2833,68.18,62,46,9.08,MG,1627333368
lomovka,53.9194,58.3672,52.72,73,7,2.13,RU,1627333369
oneonta,42.4529,-75.0638,84.43,47,0,1.99,US,1627333369
vostochnyy,55.8167,37.8667,71.11,64,100,0.47,RU,1627333369
havoysund,70.9963,24.6622,49.08,82,55,8.93,NO,1627333369
plattsburgh,44.6995,-73.4529,84.96,49,75,5.32,US,1627333370
copiapo,-27.3667,-70.3333,64.92,37,0,5.82,CL,1627333370
rincon,32.296,-81.2354,91.58,77,75,12.66,US,1627333370
saint-joseph,-21.3667,55.6167,66.56,79,63,11.1,RE,1627333371
goundam,16.4145,-3.6708,89.4,49,100,23.4,ML,1627333371
kalemie,-5.9475,29.1947,68.97,61,40,8.01,CD,1627333371
tarakan,3.3,117.6333,80.08,82,95,9.42,ID,1627333371
chisinau,47.0056,28.8575,69.93,83,0,4.61,MD,1627333372
riyadh,24.6877,46.7219,98.26,15,93,8.28,SA,1627333201
puerto baquerizo moreno,-0.9,-89.6,71.33,75,35,13.89,EC,1627333372
berezniki,59.4152,56.8124,55.83,77,92,9.06,RU,1627333373
ipu,-4.3222,-40.7108,85.12,35,56,2.17,BR,1627333373
poshekhonye,58.4993,39.1353,64.78,65,64,4.27,RU,1627333373
hay river,60.8156,-115.7999,71.94,42,1,3.58,CA,1627333206
gopalpur,19.2667,84.9167,85.89,65,100,7.0,IN,1627333374
kourou,5.1552,-52.6478,86.05,78,31,6.93,GF,1627333206
puerto cabello,10.4731,-68.0125,82.45,78,89,9.75,VE,1627333374
rameswaram,9.2833,79.3,83.95,74,100,20.2,IN,1627333374
ipira,-12.1583,-39.7372,73.02,65,75,9.95,BR,1627333329
valley city,46.9233,-98.0032,99.59,38,1,14.97,US,1627333375
belaya gora,68.5333,146.4167,52.7,50,88,12.12,RU,1627333375
solwezi,-12.1688,26.3894,51.04,54,100,5.08,ZM,1627333375
mmabatho,-25.85,25.6333,43.5,48,5,6.44,ZA,1627333376
lexington,37.9887,-84.4777,91.4,49,10,1.01,US,1627333208
basco,20.4487,121.9702,82.67,89,100,25.99,PH,1627333376
voh,-20.9667,164.7,65.17,67,100,4.65,NC,1627333377
anage,-14.6122,-41.1356,74.05,55,67,5.73,BR,1627333377
antalaha,-14.9003,50.2788,68.83,80,96,9.53,MG,1627333377
denpasar,-8.65,115.2167,74.86,88,20,2.3,ID,1627333150
beberibe,-4.1797,-38.1306,83.16,80,40,12.53,BR,1627333378
grindavik,63.8424,-22.4338,50.47,93,75,9.22,IS,1627333306
concepcion,-36.827,-73.0498,50.49,59,3,6.71,CL,1627333351
indramayu,-6.3264,108.32,75.42,81,0,7.9,ID,1627333378
oriximina,-1.7656,-55.8661,88.9,43,100,4.38,BR,1627333379
joshimath,30.5667,79.5667,73.36,90,91,0.49,IN,1627333379
ouadda,8.0777,22.4007,66.04,98,98,2.8,CF,1627333332
la orilla,17.9833,-102.2333,86.77,67,12,8.63,MX,1627333379
sao jose da coroa grande,-8.8978,-35.1478,74.88,86,54,9.51,BR,1627333380
conakry,9.538,-13.6773,78.33,86,100,8.39,GN,1627333380
kudahuvadhoo,2.6708,72.8944,82.33,66,100,1.81,MV,1627333380
aripuana,-9.1667,-60.6333,94.73,29,22,1.14,BR,1627333381
kattivakkam,13.2167,80.3167,80.69,66,62,15.86,IN,1627333381
vozrozhdeniye,44.5503,38.2136,73.24,64,99,9.26,RU,1627333381
rocha,-34.4833,-54.3333,48.29,81,18,9.84,UY,1627333269
fleurus,50.4843,4.5518,63.28,88,20,6.91,BE,1627333382
ossora,59.2353,163.0719,62.92,92,100,6.91,RU,1627333382
muros,42.7762,-9.0603,68.14,76,39,7.76,ES,1627333383
tiznit,29.5833,-9.5,69.96,71,3,5.59,MA,1627333383
pevek,69.7008,170.3133,36.79,87,94,13.87,RU,1627333383
half moon bay,37.4636,-122.4286,87.87,68,75,1.99,US,1627333384
dunmore east,52.1514,-6.9861,64.69,74,100,7.0,IE,1627333384
salinopolis,-0.6136,-47.3561,80.04,77,59,10.09,BR,1627333256
hakkari,37.5833,44.1667,64.98,31,0,3.33,TR,1627333385
buin,-33.7333,-70.75,61.7,52,0,5.84,CL,1627333385
yenagoa,4.9247,6.2642,74.19,77,100,5.46,NG,1627333385
florianopolis,-27.6146,-48.5012,70.12,75,73,7.99,BR,1627333386
buraydah,26.326,43.975,96.33,14,27,12.35,SA,1627333386
ojinaga,29.5667,-104.4167,103.41,14,1,6.91,MX,1627333386
saint-augustin,51.226,-58.6502,63.27,79,100,10.13,CA,1627333239
saint-felicien,48.6501,-72.4491,68.68,83,75,0.0,CA,1627333387
amarillo,35.222,-101.8313,92.08,45,50,5.99,US,1627333180
athabasca,54.7169,-113.2854,80.69,25,34,9.17,CA,1627333208
kishi,9.0833,3.85,75.07,77,97,9.19,NG,1627333387
insch,57.3427,-2.6132,62.24,84,31,1.68,GB,1627333388
salinas,36.6777,-121.6555,84.0,63,51,8.77,US,1627333158
adrar,20.5022,-10.0711,97.21,8,1,8.61,MR,1627333388
honiara,-9.4333,159.95,76.5,85,100,5.35,SB,1627333348
karasburg,-28.0167,18.75,56.59,31,0,8.7,NA,1627333388
paciran,-6.8767,112.3761,71.98,86,3,6.46,ID,1627333389
makakilo city,21.3469,-158.0858,83.61,65,75,5.75,US,1627333389
khani,41.9563,42.9566,65.77,99,88,2.44,GE,1627333389
bubaque,11.2833,-15.8333,80.58,82,100,11.65,GW,1627333390
kuandian,40.7286,124.7847,69.26,83,7,3.15,CN,1627333390
yayva,59.3303,57.2641,56.17,68,95,9.44,RU,1627333390
sumbe,-11.2061,13.8437,70.61,86,88,6.02,AO,1627333390
